City Number,City Name,Cloudiness,Country,Date,Humidity,Lat,Lng,Max Temp,Windspeed
0,Hilo,90,US,1611978982,73,19.7297,-155.09,75.2,6.91
1,Sumbe,100,AO,1611979427,81,-11.2061,13.8437,73.76,3.33
2,Rikitea,24,PF,1611979228,72,-23.1203,-134.9692,80.19,9.82
3,Sørland,20,NO,1611979427,74,67.667,12.6934,23.0,2.3
4,Lebu,96,CL,1611979281,90,-37.6167,-73.65,56.89,6.08
5,Punta Arenas,40,CL,1611979245,81,-53.15,-70.9167,46.4,20.71
6,Buraidah,0,SA,1611979428,71,26.326,43.975,48.2,4.61
7,Busselton,0,AU,1611979254,41,-33.65,115.3333,82.99,4.0
8,Umm Kaddadah,0,SD,1611979428,32,13.6017,26.6876,59.14,18.01
9,Kruisfontein,0,ZA,1611979391,91,-34.0033,24.7314,55.0,4.23
10,Kumul,0,CN,1611979254,78,42.8,93.45,28.63,1.52
11,Upernavik,0,GL,1611979397,84,72.7868,-56.1549,-8.79,10.27
12,Tura,0,IN,1611979429,36,25.5198,90.2201,68.65,3.44
13,Kungurtug,100,RU,1611979429,90,50.5994,97.5228,19.83,13.85
14,Seoul,20,KR,1611979383,56,37.5683,126.9778,37.4,2.3
15,Mataura,0,NZ,1611979160,39,-46.1927,168.8643,69.17,1.72
16,Nioaque,100,BR,1611979430,82,-21.1353,-55.83,74.66,5.48
17,Bengkulu,98,ID,1611979313,62,-3.8004,102.2655,85.33,3.6
18,Qaanaaq,0,GL,1611979340,63,77.484,-69.3632,-13.32,5.21
19,Port Elizabeth,0,ZA,1611979239,88,-33.918,25.5701,57.2,4.61
20,Yaan,39,NG,1611979431,71,7.3833,8.5667,69.15,4.88
21,Verkhnyaya Inta,100,RU,1611979431,84,65.9811,60.3094,-2.9,17.94
22,Mbekenyera,99,TZ,1611979431,96,-10.0,38.9833,71.82,3.56
23,Severo-Kuril'sk,100,RU,1611979242,91,50.6789,156.125,24.69,17.96
24,Shimoda,40,JP,1611979432,46,34.6667,138.95,46.4,5.75
25,New Norfolk,75,AU,1611979258,50,-42.7826,147.0587,75.2,11.5
26,Pailón,75,BO,1611979433,88,-17.65,-62.75,75.2,12.66
27,Maniitsoq,0,GL,1611979433,76,65.4167,-52.9,19.26,5.53
28,Tuktoyaktuk,1,CA,1611979227,67,69.4541,-133.0374,-36.4,2.3
29,Tairua,9,NZ,1611979433,56,-37.0167,175.85,70.0,7.0
30,Lakhtar,0,IN,1611979434,27,22.85,71.7833,65.64,11.34
31,Yellowknife,1,CA,1611979227,76,62.456,-114.3525,-18.0,5.75
32,Husavik,90,IS,1611979434,86,66.0449,-17.3389,26.6,17.27
33,Noumea,0,NC,1611979394,58,-22.2763,166.4572,86.0,21.85
34,Esperance,0,AU,1611979435,43,-33.8667,121.9,75.2,13.8
35,Ushuaia,40,AR,1611979155,75,-54.8,-68.3,42.8,17.27
36,Camacupa,91,AO,1611979435,92,-12.0167,17.4833,59.56,1.61
37,Ahipara,64,NZ,1611979402,67,-35.1667,173.1667,66.79,5.61
38,Port Lincoln,21,AU,1611979170,58,-34.7333,135.8667,67.14,15.5
39,Hermanus,63,ZA,1611979172,90,-34.4187,19.2345,62.01,1.01
40,Uusikaupunki,90,FI,1611979436,86,60.8004,21.4084,21.2,8.05
41,Flinders,75,AU,1611979436,69,-34.5833,150.8552,84.99,5.99
42,Ibrā’,0,OM,1611979436,34,22.6906,58.5334,63.66,2.24
43,Kaitangata,19,NZ,1611979252,68,-46.2817,169.8464,57.99,10.0
44,George Town,20,MY,1611979158,61,5.4112,100.3354,86.0,8.05
45,Puerto Ayora,38,EC,1611979255,94,-0.7393,-90.3518,77.0,5.01
46,East London,16,ZA,1611979244,75,-33.0153,27.9116,69.03,3.71
47,Waingapu,100,ID,1611979300,79,-9.6567,120.2641,81.34,12.88
48,Haines Junction,100,CA,1611979390,84,60.7522,-137.5108,-11.2,1.52
49,Nanortalik,99,GL,1611979337,91,60.1432,-45.2371,32.4,8.03
50,Rangāpāra,3,IN,1611979438,34,26.8167,92.65,71.24,2.42
51,Wad Medani,0,SD,1611979439,29,14.4012,33.5199,62.22,13.13
52,Clyde River,1,CA,1611979439,83,70.4692,-68.5914,-16.6,5.75
53,Trairi,93,BR,1611979439,80,-3.2778,-39.2689,79.03,9.91
54,Sampit,100,ID,1611979439,86,-2.5333,112.95,78.67,5.48
55,Pevek,18,RU,1611979429,85,69.7008,170.3133,-30.42,4.05
56,Longyearbyen,20,SJ,1611979381,50,78.2186,15.6401,-0.4,24.16
57,Arraial do Cabo,77,BR,1611979208,84,-22.9661,-42.0278,76.84,24.63
58,Aklavik,93,CA,1611979394,68,68.2191,-135.0107,-27.4,0.22
59,Lavrentiya,0,RU,1611979440,81,65.5833,-171.0,-18.71,9.53
60,Saint-Philippe,0,RE,1611979247,48,-21.3585,55.7679,84.2,5.75
61,Brae,75,GB,1611979240,80,60.3964,-1.353,32.0,8.05
62,Porto Murtinho,98,BR,1611979441,88,-21.6989,-57.8825,74.93,8.01
63,Mana,92,GF,1611979441,89,5.6592,-53.7767,76.68,13.6
64,Ucluelet,100,CA,1611979357,90,48.9329,-125.5528,42.01,4.0
65,Jamestown,90,US,1611979241,73,42.097,-79.2353,19.0,13.8
66,Bluff,0,NZ,1611979243,75,-46.6,168.3333,54.23,15.23
67,Saint Paul Harbor,1,US,1611979337,55,57.79,-152.4072,35.6,16.11
68,Poum,28,NC,1611979442,73,-20.2333,164.0167,80.6,8.66
69,Saint Andrews,1,US,1611979443,80,34.0454,-81.1293,33.8,5.66
70,Kapaa,40,US,1611979238,78,22.0752,-159.319,75.2,16.11
71,Lensk,74,RU,1611979443,76,60.7253,114.9278,-38.38,3.89
72,Vostok,99,RU,1611979443,87,46.4856,135.8833,-4.9,4.54
73,Albany,6,US,1611979204,50,42.6001,-73.9662,9.0,3.0
74,Narsaq,75,GL,1611979444,33,60.9167,-46.05,41.0,34.52
75,Kavieng,89,PG,1611979444,76,-2.5744,150.7967,84.33,14.5
76,Fairbanks,1,US,1611979444,77,64.8378,-147.7164,1.0,2.39
77,Faanui,100,PF,1611979430,67,-16.4833,-151.75,81.23,4.76
78,Vaini,90,TO,1611979243,89,-21.2,-175.2,80.6,14.97
79,Atar,47,MR,1611979445,27,20.5169,-13.0499,64.65,11.56
80,Namatanai,40,PG,1611979445,77,-3.6667,152.4333,84.09,14.0
81,Sept-Îles,0,CA,1611979445,61,50.2001,-66.3821,10.4,8.05
82,Linao,99,PH,1611979446,63,7.1678,124.9675,85.96,5.14
83,Chetwayi,100,IN,1611979446,78,10.5333,76.05,78.8,3.44
84,Ascension,1,US,1611979446,87,30.2169,-90.9001,46.99,6.11
85,Dubti,0,ET,1611979446,85,11.7361,41.0853,62.65,3.31
86,Caucayá,49,CO,1611979402,73,-0.1934,-74.7819,73.65,2.06
87,Hasaki,20,JP,1611979313,23,35.7333,140.8333,46.0,20.71
88,Doha,0,QA,1611979380,82,25.2867,51.5333,68.0,10.36
89,Şuhut,96,TR,1611979447,86,38.5311,30.5458,31.73,8.08
90,Collie,0,AU,1611979447,42,-33.3667,116.15,77.0,3.0
91,Kahului,40,US,1611979448,73,20.8947,-156.47,73.4,17.27
92,Yeniseysk,84,RU,1611979448,82,58.4497,92.1703,-25.04,4.92
93,Burla,0,IN,1611979448,82,21.5,83.8667,60.8,4.61
94,Klaksvík,75,FO,1611979338,69,62.2266,-6.589,32.0,10.36
95,Krasnogorskoye,100,RU,1611979449,97,52.2953,86.1979,21.16,11.07
96,Krasnosel'kup,12,RU,1611979449,78,65.7,82.4667,-34.38,3.2
97,Comodoro Rivadavia,0,AR,1611979155,71,-45.8667,-67.5,51.8,2.24
98,Tacarigua,88,VE,1611979449,90,10.0862,-67.9198,67.69,4.45
99,Cape Town,75,ZA,1611979338,94,-33.9258,18.4232,70.0,3.44
100,Bangassou,68,CF,1611979222,84,4.7413,22.8184,67.87,2.8
101,Riberalta,99,BO,1611979450,95,-10.9833,-66.1,73.33,2.71
102,Kalmunai,10,LK,1611979450,82,7.4167,81.8167,80.1,9.13
103,Ivankiv,53,UA,1611979451,100,50.9386,29.8943,15.8,6.71
104,Batemans Bay,34,AU,1611979218,61,-35.7167,150.1833,81.0,7.67
105,Salalah,75,OM,1611979239,64,17.0151,54.0924,69.8,4.61
106,Puerto Baquerizo Moreno,31,EC,1611979451,83,-0.9,-89.6,77.02,9.1
107,Funtua,0,NG,1611979451,29,11.5233,7.3081,61.52,12.08
108,La Santisima Trinidad,100,BO,1611979452,91,-14.8333,-64.9,75.78,4.61
109,Brownsville,1,US,1611979201,77,25.9018,-97.4975,66.2,5.75
110,Atuona,19,PF,1611979249,79,-9.8,-139.0333,78.49,19.13
111,Pangnirtung,1,CA,1611979452,65,66.1451,-65.7125,-5.8,2.3
112,Cabo San Lucas,1,MX,1611979166,82,22.8909,-109.9124,68.0,4.61
113,Bay City,1,US,1611979391,73,43.5945,-83.8889,15.8,3.44
114,Raudeberg,76,NO,1611979453,89,61.9875,5.1352,34.0,22.91
115,Deputatsky,100,RU,1611979453,87,69.3,139.9,-29.0,2.3
116,Airai,100,TL,1611979327,98,-8.9266,125.4092,65.66,4.56
117,Sterlibashevo,97,RU,1611979454,97,53.4376,55.2578,19.54,7.76
118,Fond du Lac,90,US,1611979322,74,43.775,-88.4388,28.4,10.36
119,Antofagasta,0,CL,1611979370,77,-23.65,-70.4,66.2,10.36
120,Östersund,90,SE,1611979404,77,63.1792,14.6357,-5.01,0.87
121,Heishan,1,CN,1611979454,70,41.6892,122.1128,14.13,12.26
122,Saint Anthony,90,US,1611979337,58,45.0205,-93.218,25.0,13.8
123,Isabela,75,PH,1611979455,58,6.7085,121.9711,87.8,9.22
124,Sistranda,75,NO,1611979247,75,63.7256,8.834,35.6,14.97
125,Banda Aceh,99,ID,1611979455,71,5.5577,95.3222,83.3,16.31
126,Laguna,1,US,1611979188,87,38.421,-121.4238,46.99,4.61
127,Roxana,0,CR,1611979456,64,10.2753,-83.7513,68.0,14.97
128,Ponta do Sol,62,PT,1611979236,75,32.6667,-17.1,57.99,1.99
129,Hualmay,80,PE,1611979287,76,-11.0964,-77.6139,70.93,6.87
130,Avarua,90,CK,1611979169,83,-21.2078,-159.775,80.6,6.91
131,Chāndbāli,0,IN,1611979457,37,20.7833,86.7667,73.71,10.63
132,Helena,75,US,1611979457,86,46.5927,-112.0361,32.0,3.31
133,Hambantota,20,LK,1611979457,89,6.1241,81.1185,80.6,9.22
134,Hong Kong,0,HK,1611979208,65,22.2855,114.1577,70.0,3.0
135,Vikulovo,100,RU,1611979457,95,56.8167,70.6107,7.34,8.16
136,Saldanha,79,ZA,1611979239,78,-33.0117,17.9442,66.36,10.31
137,Chernigovka,100,RU,1611979458,85,44.3389,132.5728,-2.6,4.65
138,Hobart,75,AU,1611979238,50,-42.8794,147.3294,75.2,11.5
139,Tricase,0,IT,1611979458,93,39.9304,18.3553,55.0,10.36
140,Honningsvåg,99,NO,1611979405,92,70.9821,25.9704,24.64,12.8
141,Shyroke,0,UA,1611979459,86,47.6917,33.2571,26.6,4.47
142,Chokurdakh,100,RU,1611979459,85,70.6333,147.9167,-27.45,8.77
143,Egvekinot,0,RU,1611979459,84,66.3167,-179.1667,-22.63,6.67
144,Varadero,40,CU,1611979459,77,23.1536,-81.2514,62.6,5.75
145,Oyotún,95,PE,1611979459,64,-6.8519,-79.3036,75.22,1.63
146,Constitución,100,CL,1611979259,94,-35.3333,-72.4167,60.51,9.69
147,Chui,2,UY,1611979460,92,-33.6971,-53.4616,67.24,1.21
148,Van,75,TR,1611979460,69,38.4924,43.3831,33.8,18.41
149,Hay River,34,CA,1611979461,76,60.8156,-115.7999,-20.2,2.3
150,Hofn,65,IS,1611979269,79,64.2539,-15.2082,32.76,4.92
151,Butaritari,99,KI,1611979461,77,3.0707,172.7902,80.56,14.88
152,Waipawa,21,NZ,1611979253,55,-41.4122,175.5153,64.99,19.57
153,Leningradskiy,100,RU,1611979462,85,69.3833,178.4167,-22.16,7.87
154,Smidovich,1,RU,1611979462,82,48.6,133.8167,-6.74,5.26
155,Kuli,90,RU,1611979462,100,42.0185,47.2434,39.2,4.61
156,Gorontalo,48,ID,1611979462,74,0.5412,123.0595,84.25,4.65
157,Sagua de Tánamo,35,CU,1611979462,84,20.5819,-75.2414,67.28,7.16
158,Harbour Breton,100,CA,1611979463,93,47.4833,-55.7983,25.34,17.0
159,Port Alfred,15,ZA,1611979463,82,-33.5906,26.891,66.0,6.71
160,João Pinheiro,100,BR,1611979463,68,-17.7425,-46.1725,68.94,3.94
161,Pisco,0,PE,1611979463,73,-13.7,-76.2167,71.6,11.5
162,Ribeira Grande,98,PT,1611979256,85,38.5167,-28.7,61.65,24.45
163,Liverpool,90,GB,1611979248,81,53.4106,-2.9779,41.0,20.71
164,Tunapuna,40,TT,1611979320,88,10.6333,-61.3833,75.2,6.44
165,Castro,100,BR,1611979236,95,-24.7911,-50.0119,62.58,3.09
166,Bredasdorp,91,ZA,1611979246,89,-34.5322,20.0403,62.01,4.9
167,Boende,75,CD,1611979464,93,-0.2167,20.8667,70.14,1.39
168,Sur,0,OM,1611979318,42,22.5667,59.5289,67.89,6.93
169,Ballina,40,AU,1611979465,65,-28.8667,153.5667,86.0,13.8
170,Tasiilaq,90,GL,1611979197,53,65.6145,-37.6368,15.8,21.85
171,Guarapari,20,BR,1611979465,83,-20.6667,-40.4975,77.0,6.91
172,Lorengau,100,PG,1611979251,81,-2.0226,147.2712,83.34,9.44
173,Urusha,2,RU,1611979466,79,54.05,122.9,-20.78,1.66
174,Ossora,100,RU,1611979466,94,59.2353,163.0719,10.13,19.19
175,Thompson,90,CA,1611979243,85,55.7435,-97.8558,10.4,4.61
176,Genhe,84,CN,1611979466,79,50.7833,121.5167,-17.61,3.33
177,Vila Franca do Campo,20,PT,1611978986,94,37.7167,-25.4333,59.0,9.22
178,Harper,0,LR,1611979375,87,4.375,-7.7169,77.77,6.11
179,Luba,20,GQ,1611979467,100,3.4568,8.5547,73.4,5.75
180,Dargaville,28,NZ,1611979467,47,-35.9333,173.8833,69.49,8.77
181,Cap Malheureux,1,MU,1611979467,73,-19.9842,57.6142,84.0,7.0
182,Kishtwār,0,IN,1611979468,48,33.3167,75.7667,40.41,3.31
183,Dikson,96,RU,1611979468,84,73.5069,80.5464,-33.92,7.52
184,Perdika,40,GR,1611979468,77,39.3689,20.3039,59.0,10.36
185,Craigieburn,75,AU,1611979468,56,-37.6,144.95,73.4,11.5
186,Palembang,40,ID,1611979281,78,-2.9167,104.7458,82.4,12.66
187,Třemošnice,90,CZ,1611979469,87,49.8691,15.58,42.01,11.5
188,Broken Hill,2,AU,1611979469,34,-31.95,141.4333,84.2,16.11
189,Kosa,100,RU,1611979469,96,59.9445,54.9977,14.81,12.21
190,Japaratuba,75,BR,1611979470,83,-10.5933,-36.9403,77.0,6.91
191,Tiksi,100,RU,1611979470,85,71.6872,128.8694,-29.65,5.23
192,Batticaloa,16,LK,1611979470,81,7.7102,81.6924,80.13,10.11
193,Hobyo,32,SO,1611978961,76,5.3505,48.5268,75.87,15.88
194,Asău,100,RO,1611979471,58,46.4333,26.4,41.0,5.53
195,São Filipe,98,CV,1611979471,54,14.8961,-24.4956,74.86,9.62
196,Cayenne,75,GF,1611979210,100,4.9333,-52.3333,77.0,8.05
197,Lagoa,100,PT,1611979471,83,39.05,-27.9833,60.13,20.0
198,Buala,98,SB,1611979421,75,-8.145,159.5921,85.05,12.37
199,Mae Sot,40,TH,1611979472,61,16.7167,98.5667,80.6,1.68
200,Valparaíso,100,CL,1611979265,80,-33.0393,-71.6273,64.99,5.59
201,Beloha,0,MG,1611979472,64,-25.1667,45.05,81.9,6.69
202,Celestún,1,MX,1611979472,79,20.8667,-90.4,69.08,14.14
203,Beringovskiy,0,RU,1611979383,83,63.05,179.3167,-18.15,10.27
204,Bethel,1,US,1611979295,52,41.3712,-73.414,14.0,5.75
205,East Moline,1,US,1611979473,69,41.5009,-90.4443,28.99,10.36
206,Kokopo,93,PG,1611979473,70,-4.352,152.2633,85.69,13.98
207,Plouzané,90,FR,1611979473,93,48.3833,-4.6167,51.8,20.71
208,Rybinsk,100,RU,1611979474,97,58.0446,38.8426,24.64,10.02
209,Codrington,100,AU,1611979219,71,-38.2667,141.9667,62.94,13.2
210,San Cristobal,35,VE,1611979251,76,7.7669,-72.225,63.48,1.54
211,Tirumullaivāsal,98,IN,1611979474,74,11.2333,79.8333,80.22,13.51
212,Paraíso,0,CR,1611979475,64,9.8383,-83.8656,68.0,14.97
213,Pochutla,40,MX,1611979475,83,15.7432,-96.4661,78.8,6.91
214,Nicoya,0,CR,1611979475,65,10.1483,-85.452,77.0,24.16
215,Touros,40,BR,1611979475,83,-5.1989,-35.4608,77.0,4.61
216,Barrow,75,US,1611979248,70,71.2906,-156.7887,-11.2,8.05
217,Luanda,40,AO,1611979476,83,-8.8368,13.2343,78.8,6.91
218,Béjar,100,ES,1611979476,96,40.3864,-5.7634,46.99,1.01
219,Launceston,75,AU,1611979403,57,-41.45,147.1667,77.0,14.97
220,Chagoda,100,RU,1611979476,97,59.164,35.3285,23.68,8.86
221,Hūn,0,LY,1611979438,47,29.1268,15.9477,54.84,6.22
222,Swan Hill,0,AU,1611979477,33,-35.3378,143.5544,82.85,9.01
223,Penzance,75,GB,1611979477,100,50.1186,-5.5371,50.0,21.85
224,Kailua,75,US,1611979445,73,21.4022,-157.7394,77.0,12.66
225,Bilibino,0,RU,1611979478,80,68.0546,166.4372,-24.18,4.54
226,Camacha,75,PT,1611979467,94,33.0833,-16.3333,60.8,8.05
227,Ebersberg,98,DE,1611979478,88,48.0771,11.9706,41.0,8.01
228,Kavaratti,19,IN,1611979478,73,10.5669,72.642,80.35,11.25
229,Temir,78,KZ,1611979479,95,49.1414,57.13,16.09,6.8
230,Iqaluit,1,CA,1611979373,70,63.7506,-68.5145,-13.0,27.63
231,Tokonou,0,GN,1611979479,42,9.65,-9.7833,64.2,4.16
232,Qaqortoq,75,GL,1611979479,33,60.7167,-46.0333,41.0,34.52
233,Ürümqi,90,CN,1611979324,92,43.801,87.6005,5.0,2.24
234,Bambous Virieux,40,MU,1611979248,89,-20.3428,57.7575,84.0,8.05
235,Biak,100,ID,1611979480,58,-0.9131,122.8766,84.76,1.07
236,Revelstoke,90,CA,1611979400,93,50.9832,-118.2023,26.6,2.3
237,Carnarvon,0,AU,1611979481,19,-24.8667,113.6333,107.6,17.27
238,Chiredzi,9,ZW,1611979264,97,-21.05,31.6667,70.9,3.02
239,Kasongo-Lunda,100,CD,1611979481,92,-6.4667,16.8167,68.58,0.49
240,Tygda,78,RU,1611979481,85,53.1167,126.3333,-18.98,4.54
241,Mahébourg,40,MU,1611979220,89,-20.4081,57.7,78.8,8.05
242,Portales,90,US,1611979183,76,34.1862,-103.3344,48.0,6.91
243,Sal Rei,98,CV,1611979482,83,16.1833,-22.9167,69.8,12.66
244,Anadyr,0,RU,1611979482,69,64.75,177.4833,-20.0,8.95
245,Tuatapere,0,NZ,1611979336,49,-46.1333,167.6833,64.8,6.62
246,Torbay,90,CA,1611979242,93,47.6666,-52.7314,27.0,20.71
247,Evensk,100,RU,1611979483,86,61.95,159.2333,1.74,15.9
248,La Ronge,75,CA,1611979388,85,55.1001,-105.2842,8.6,3.44
249,Hithadhoo,78,MV,1611979174,76,-0.6,73.0833,81.88,12.82
250,Xingyi,99,CN,1611979483,74,24.1877,102.817,56.16,6.13
251,San Patricio,90,US,1611979341,77,28.017,-97.5169,69.8,16.11
252,Verkhovazh'ye,100,RU,1611979484,96,60.7472,42.0465,15.03,6.35
253,Nanzhang,76,CN,1611979484,36,31.7765,111.8386,57.16,5.21
254,Quatre Cocos,40,MU,1611979484,89,-20.2078,57.7625,84.0,8.05
255,Naze,75,JP,1611979484,54,28.3667,129.4833,57.2,11.5
256,Padang,40,ID,1611979484,70,-0.9492,100.3543,84.2,3.44
257,Şuncuiuş,20,RO,1611979485,93,46.9333,22.5333,39.2,13.8
258,Níjar,90,ES,1611979485,100,36.9665,-2.206,53.6,3.44
259,Green Valley,93,US,1611979485,86,31.8543,-110.9937,51.01,16.69
260,Vrangel',66,RU,1611979486,84,42.7297,133.0839,17.06,14.92
261,Khanbari,0,NP,1611979486,32,27.3747,87.2039,59.72,1.86
262,Vao,27,NC,1611979342,75,-22.6667,167.4833,76.12,21.36
263,Porto Belo,100,BR,1611979299,94,-27.1578,-48.5531,77.0,4.61
264,Paraná,2,AR,1611979486,83,-31.732,-60.5238,75.0,1.99
265,Sinnamary,92,GF,1611979487,88,5.3833,-52.95,76.93,13.09
266,Dvinskoy,100,RU,1611979487,97,62.1535,45.1175,19.04,7.14
267,Khatanga,0,RU,1611979228,76,71.9667,102.5,-43.65,2.73
268,Pitimbu,75,BR,1611979487,78,-7.4706,-34.8086,80.6,9.22
269,Burnie,66,AU,1611979487,57,-41.0667,145.9167,70.0,21.0
270,Mazatlán,40,MX,1611979333,56,23.2167,-106.4167,69.8,3.44
271,Kysyl-Syr,100,RU,1611979488,77,63.8986,122.7617,-40.72,1.92
272,Ostrovnoy,100,RU,1611979394,94,68.0531,39.5131,9.09,16.67
273,Srednekolymsk,99,RU,1611979488,84,67.45,153.6833,-33.12,1.9
274,Nikolskoye,90,RU,1611979488,93,59.7035,30.7861,30.99,8.95
275,Briançon,24,FR,1611979489,52,44.9,6.65,46.99,4.18
276,Saskylakh,0,RU,1611979489,75,71.9167,114.0833,-37.79,3.56
277,Lufilufi,90,WS,1611979489,84,-13.8745,-171.5986,84.2,12.66
278,Rome,90,US,1611979489,66,43.2128,-75.4557,8.6,1.01
279,Palmer,1,US,1611979490,61,42.1584,-72.3287,12.0,6.91
280,Santa Cruz de Barahona,6,DO,1611979490,76,18.2085,-71.1008,73.26,3.89
281,Bollnäs,66,SE,1611979490,89,61.3482,16.3946,2.62,4.16
282,Himeji,20,JP,1611979490,49,34.8167,134.7,46.99,16.11
283,Olinda,40,BR,1611979491,73,-8.0089,-34.8553,78.8,6.91
284,Isangel,40,VU,1611979491,62,-19.55,169.2667,87.8,11.5
285,Davila,75,PH,1611979491,44,18.4726,120.5763,82.4,10.36
286,Halifax,100,CA,1611979335,86,44.6453,-63.5724,28.0,11.5
287,Aripuanã,100,BR,1611979491,96,-9.1667,-60.6333,73.15,0.81
288,Cherepanovo,100,RU,1611979492,96,54.2222,83.381,8.64,8.14
289,Bathsheba,40,BB,1611979492,69,13.2167,-59.5167,78.8,14.97
290,Mareeba,77,AU,1611979492,69,-17.0,145.4333,89.01,7.0
291,Ambilobe,78,MG,1611979490,89,-13.2,49.05,76.28,2.35
292,Port Macquarie,89,AU,1611979255,69,-31.4333,152.9167,82.99,1.99
293,Shache,0,CN,1611979493,77,38.4167,77.2406,28.67,2.06
294,Lamar,1,US,1611979493,66,33.6668,-95.5836,50.0,9.22
295,Coos Bay,100,US,1611979493,98,43.3665,-124.2179,42.01,1.99
296,Ilebo,97,CD,1611979493,89,-4.3167,20.5833,70.41,0.2
297,Sainte-Maxime,57,FR,1611979494,54,43.3,6.6333,55.0,8.05
298,Victor Harbor,84,AU,1611979494,67,-35.5667,138.6167,70.0,1.01
299,Farafangana,5,MG,1611979494,84,-22.8167,47.8333,78.44,5.28
300,Bryan,90,US,1611979494,72,30.6744,-96.37,59.0,12.66
301,La Crosse,1,US,1611979271,58,43.8014,-91.2396,25.0,10.36
302,Macao,0,MO,1611979495,63,22.2006,113.5461,68.0,9.22
303,Tyup,0,KG,1611979495,81,42.7276,78.3648,20.68,1.7
304,Teeli,58,RU,1611979495,88,51.0333,90.2333,21.2,3.58
305,Progreso,1,MX,1611979445,68,21.2833,-89.6667,69.01,9.22
306,Nouakchott,100,MR,1611979495,20,18.0858,-15.9785,64.4,6.91
307,Bela,0,IN,1611979496,43,25.9333,81.9833,56.64,8.61
308,Am Timan,0,TD,1611979496,24,11.0297,20.2827,67.23,7.72
309,Caravelas,4,BR,1611979411,89,-17.7125,-39.2481,75.02,5.99
310,Avera,1,US,1611979496,86,33.194,-82.5271,33.8,4.85
311,Olden,73,NO,1611979496,82,61.8364,6.8064,28.0,6.73
312,Talnakh,2,RU,1611979245,65,69.4865,88.3972,-31.61,3.2
313,Yulara,40,AU,1611979252,33,-25.2406,130.9889,89.6,18.41
314,Moussoro,46,TD,1611979497,24,13.6408,16.4901,63.3,15.3
315,Souillac,40,MU,1611979240,89,-20.5167,57.5167,78.8,8.05
316,Sambava,8,MG,1611979498,87,-14.2667,50.1667,76.64,3.89
317,Nome,1,US,1611979498,59,64.5011,-165.4064,-4.0,18.41
318,Sijunjung,100,ID,1611979498,89,-0.6876,100.9537,74.01,1.36
319,Preobrazheniye,63,RU,1611979499,80,42.9019,133.9064,21.22,14.36
320,Måløy,90,NO,1611979499,86,61.9353,5.1136,34.0,10.36
321,Németkér,61,HU,1611979499,82,46.7164,18.7631,40.71,9.84
322,Ardeşen,75,TR,1611979499,93,41.1911,40.9875,42.8,5.75
323,Altay,34,CN,1611979499,81,47.8667,88.1167,9.32,0.56
324,Ruska Poliana,82,UA,1611979500,95,49.417,31.9201,24.58,4.23
325,Bara,0,NG,1611979500,27,10.3744,10.7288,63.88,7.52
326,The Valley,40,AI,1611979249,83,18.217,-63.0578,77.0,5.75
327,Kaili,100,ID,1611979500,80,-3.4626,120.2147,77.86,2.66
328,Lakes Entrance,72,AU,1611979477,72,-37.8811,147.981,73.99,1.01
329,Bandarbeyla,27,SO,1611979260,73,9.4942,50.8122,73.38,11.81
330,Ancud,0,CL,1611979501,81,-41.8697,-73.8203,52.0,9.22
331,Khandyga,84,RU,1611979501,75,62.6667,135.6,-44.09,0.85
332,Mount Isa,75,AU,1611979501,22,-20.7333,139.5,100.4,11.5
333,Vung Tau,100,VN,1611979334,63,10.346,107.0843,77.23,4.16
334,Alice,90,US,1611979502,72,27.7523,-98.0697,71.6,12.66
335,Stromness,41,GB,1611979478,75,58.965,-3.296,35.6,16.11
336,Kamaishi,40,JP,1611979502,47,39.2667,141.8833,32.0,12.66
337,Taksimo,53,RU,1611979407,76,56.3444,114.8794,-26.34,1.14
338,Mount Gambier,90,AU,1611979251,63,-37.8333,140.7667,66.2,12.66
339,Jalu,0,LY,1611979304,71,29.0331,21.5482,53.35,10.27
340,Setermoen,0,NO,1611979503,84,68.861,18.3486,-5.8,2.3
341,Buarcos,75,PT,1611979503,94,40.166,-8.8768,57.2,10.36
342,Chicama,79,PE,1611979504,70,-7.8447,-79.1469,72.97,5.1
343,Pahrump,39,US,1611979504,63,36.2083,-115.9839,43.0,1.99
344,Maromitsa,100,RU,1611979504,98,59.8683,48.0123,20.48,6.69
345,Cidreira,49,BR,1611979393,90,-30.1811,-50.2056,74.82,4.56
346,Acapulco de Juárez,90,MX,1611979214,83,16.8634,-99.8901,80.6,5.75
347,Mastic Beach,1,US,1611979505,45,40.7668,-72.8521,19.4,18.41
348,Gushikawa,75,JP,1611979505,42,26.3544,127.8686,66.2,11.5
349,Diu,46,IN,1611979505,24,20.7141,70.9822,70.66,13.94
350,Kawambwa,99,ZM,1611979505,94,-9.7915,29.0791,60.1,2.19
351,Banjar,20,ID,1611979506,79,-8.19,114.9675,84.2,10.36
352,Uwajima,40,JP,1611979506,46,33.2238,132.56,46.4,6.91
353,Campbell River,90,CA,1611979217,100,50.0163,-125.2446,42.01,13.8
354,Finale Ligure,0,IT,1611979506,87,44.1695,8.3436,50.0,5.75
355,Gari,100,RU,1611979507,92,59.4307,62.3497,-4.02,8.37
356,Puerto Nariño,40,CO,1611979507,100,-3.7703,-70.3831,73.4,1.61
357,Suixi,55,CN,1611979507,40,33.8907,116.7747,53.2,3.02
358,Ust-Maya,99,RU,1611979339,76,60.4167,134.5333,-39.91,0.89
359,Fortuna,90,US,1611979340,76,40.5982,-124.1573,46.99,12.66
360,Virginia Beach,0,US,1611979355,55,36.8529,-75.978,30.99,1.99
361,Itarema,98,BR,1611979321,86,-2.9248,-39.9167,78.44,11.77
362,Taoudenni,0,ML,1611979250,28,22.6783,-3.9836,64.29,10.36
363,Port Hardy,90,CA,1611979508,87,50.6996,-127.4199,42.8,17.27
364,Grand Forks,90,US,1611979326,93,47.9417,-97.4337,23.0,16.11
365,Atagay,100,RU,1611979509,92,55.1033,99.3875,0.39,5.06
366,Ixtapa,40,MX,1611979509,88,20.7,-105.2,72.0,2.95
367,Mar del Plata,75,AR,1611979235,94,-38.0023,-57.5575,69.01,4.61
368,Ordu,0,TR,1611979509,70,40.9086,37.6845,37.4,3.44
369,Jumla,0,NP,1611979461,36,29.2747,82.1838,42.49,2.48
370,Tupik,25,RU,1611979510,79,54.4253,119.9327,-24.38,0.94
371,Saint-Augustin,26,CA,1611979510,91,51.226,-58.6502,12.65,11.74
372,Huarmey,96,PE,1611979510,74,-10.0681,-78.1522,71.1,6.33
373,Kuril'sk,100,RU,1611979462,96,45.2333,147.8833,26.56,23.11
374,Praia,0,CV,1611979511,53,14.9215,-23.5087,73.4,17.27
375,Whitehorse,75,CA,1611979511,78,60.7161,-135.0538,0.0,5.75
376,Ust-Tsilma,100,RU,1611979511,93,65.441,52.1498,3.29,9.82
377,Los Llanos de Aridane,20,ES,1611979246,82,28.6585,-17.9182,62.6,5.75
378,Edd,0,ER,1611979512,38,13.9297,41.6925,74.3,8.21
379,Prescott Valley,90,US,1611979512,80,34.5894,-112.3252,35.6,8.05
380,Sarangani,100,PH,1611979286,75,5.4033,125.4636,82.02,20.78
381,Dingle,100,PH,1611979512,86,10.9995,122.6711,76.06,15.39
382,Almargem do Bispo,100,PT,1611979513,93,38.8491,-9.2668,57.99,11.99
383,Flin Flon,100,CA,1611979513,96,54.7682,-101.865,11.17,5.93
384,Dogondoutchi,0,NE,1611979513,24,13.6393,4.0287,66.83,12.5
385,Mahon,0,ES,1611979513,94,39.8885,4.2658,53.6,4.61
386,Baruun-Urt,84,MN,1611979514,93,46.6806,113.2792,2.77,10.58
387,Coolum Beach,72,AU,1611979436,68,-26.5333,153.1,82.99,5.01
388,Hamilton,1,US,1611979514,86,39.1834,-84.5333,26.01,4.18
389,Tromsø,0,NO,1611979514,68,69.6496,18.957,19.4,10.36
390,Paita,74,PE,1611979514,73,-5.0892,-81.1144,75.47,11.97
391,Severomuysk,1,RU,1611979515,83,56.1481,113.4267,-28.46,3.87
392,Champerico,58,GT,1611979515,90,14.3,-91.9167,64.0,5.14
393,Opuwo,95,NA,1611979340,61,-18.0607,13.84,68.56,4.54
394,Black River,75,JM,1611979515,78,18.0264,-77.8487,75.99,6.91
395,Defiance,1,US,1611979382,79,41.3334,-84.45,21.99,5.19
396,Tautira,75,PF,1611979516,65,-17.7333,-149.15,82.4,8.05
397,Faya,0,SA,1611979516,31,18.3851,42.4509,51.8,0.74
398,Dukat,100,RU,1611979516,83,62.55,155.55,-29.22,5.12
399,Sri Aman,75,MY,1611979516,89,1.2376,111.4621,80.6,2.3
400,Guerrero Negro,3,MX,1611979517,73,27.9769,-114.0611,59.81,15.35
401,Charlestown,100,AU,1611979466,87,-32.95,151.6667,77.0,8.01
402,Baghdad,84,IQ,1611979517,81,33.3406,44.4009,42.8,4.61
403,Sompeta,9,IN,1611979386,58,18.9333,84.6,79.07,2.48
404,Piaçabuçu,84,BR,1611979517,82,-10.4056,-36.4344,77.52,8.77
405,Tālbahat,0,IN,1611979518,31,25.05,78.4333,60.55,3.29
406,Christchurch,8,NZ,1611979518,42,-43.5333,172.6333,66.99,5.75
407,Bani Walid,8,LY,1611979518,42,31.7566,13.9942,58.17,11.59
408,Yurino,75,RU,1611979518,93,56.2942,46.3039,23.0,8.95
409,Alice Springs,74,AU,1611979372,36,-23.7,133.8833,93.99,13.8
410,Mossamedes,100,AO,1611979519,78,-15.1961,12.1522,73.62,8.43
411,Roebourne,38,AU,1611979519,42,-20.7833,117.1333,94.06,9.53
412,Geraldton,0,AU,1611979444,16,-28.7667,114.6,102.2,9.22
413,Kiryat Gat,51,IL,1611979519,100,31.61,34.7642,45.0,3.0
414,Eyrarbakki,75,IS,1611979520,74,63.863,-21.1481,32.0,3.44
415,Gubkinskiy,15,RU,1611979520,82,64.434,76.5026,-41.58,3.24
416,Jacksonville,1,US,1611979498,81,30.3322,-81.6556,48.2,3.44
417,Port Augusta,30,AU,1611979520,50,-32.5,137.7667,82.99,18.41
418,San Miguel,10,SV,1611979521,52,13.4833,-88.1833,73.6,3.51
419,Laas,90,IT,1611979289,86,46.6166,10.7002,30.99,5.75
420,Praia da Vitória,20,PT,1611979521,82,38.7333,-27.0667,59.0,17.52
421,Tomatlán,38,MX,1611979522,47,19.9333,-105.25,74.01,3.27
422,Atambua,100,ID,1611979522,85,-9.1061,124.8925,77.9,10.31
423,Blagoyevo,100,RU,1611979522,97,63.3667,47.9167,20.46,7.43
424,Bismarck,90,US,1611979522,86,46.8083,-100.7837,24.8,10.36
425,Kashin,99,RU,1611979523,98,57.3592,37.6081,23.72,10.69
426,Dandong,1,CN,1611979280,90,40.1292,124.3947,22.03,11.9
427,Surab,0,PK,1611979523,28,28.4914,66.2585,49.93,2.35
428,Baykit,94,RU,1611979462,76,61.67,96.37,-35.34,4.41
429,Yeppoon,40,AU,1611979407,48,-23.1333,150.7333,87.8,12.66
430,Kolosovka,100,RU,1611979524,93,56.4678,73.611,2.84,10.47
431,Cortez,90,US,1611979294,86,37.3489,-108.5859,33.8,13.8
432,Mantenópolis,12,BR,1611979524,97,-18.8625,-41.1228,66.81,3.27
433,Jorochito,75,BO,1611979524,88,-18.05,-63.4333,75.2,12.66
434,Norman Wells,40,CA,1611979252,74,65.282,-126.8329,-34.6,2.3
435,Naantali,90,FI,1611979525,86,60.4674,22.0243,23.0,8.05
436,Yar-Sale,38,RU,1611979525,82,66.8333,70.8333,-38.33,4.56
437,Fort Nelson,75,CA,1611979525,77,58.8053,-122.7002,-13.0,0.58
438,Kirakira,100,SB,1611979525,78,-10.4544,161.9205,83.39,9.04
439,Bucerías,40,MX,1611979526,88,20.75,-105.3333,72.0,6.49
440,Meulaboh,69,ID,1611979526,63,4.1363,96.1285,84.6,2.98
441,Katherine,90,AU,1611979526,66,-14.4667,132.2667,86.0,12.66
442,Kosh-Agach,49,RU,1611979258,87,50.0,88.6667,0.9,1.28
443,Dunmore East,100,IE,1611979527,91,52.1514,-6.9861,44.01,15.99
444,Necochea,60,AR,1611979241,74,-38.5473,-58.7368,64.99,12.84
445,Menongue,77,AO,1611979527,95,-14.6585,17.691,61.14,3.85
446,Bad Salzungen,100,DE,1611979528,85,50.8167,10.2333,42.01,5.99
447,Ubari,0,LY,1611979528,65,26.5921,12.7805,48.36,3.56
448,San Juan,0,AR,1611979528,25,-31.5375,-68.5364,82.72,12.88
449,Havøysund,75,NO,1611979528,68,70.9963,24.6622,21.2,5.75
450,Arrondissement de Vannes,90,FR,1611979529,100,47.8333,-2.5,53.01,14.97
451,Gogrial,64,SS,1611979505,22,8.5332,28.1004,67.73,6.44
452,Florence,90,IT,1611979529,93,43.7667,11.25,46.4,1.14
453,Port Blair,26,IN,1611979530,68,11.6667,92.75,83.61,10.18
454,North Platte,90,US,1611979530,93,41.1239,-100.7654,26.6,5.75
455,Darhan,100,MN,1611979530,91,49.4867,105.9228,8.56,3.62
456,Vestmannaeyjar,100,IS,1611979385,82,63.4427,-20.2734,35.22,7.9
457,Nantucket,90,US,1611979267,79,41.2835,-70.0995,23.0,25.32
458,Port Moresby,100,PG,1611979531,85,-9.4431,147.1797,77.05,11.61
459,Guayanilla,28,PR,1611979531,90,18.0191,-66.7918,73.0,4.05
460,Riyadh,60,SA,1611979362,31,24.6877,46.7219,60.8,5.75
461,Ilulissat,0,GL,1611979532,55,69.2167,-51.1,1.4,6.91
462,Batagay,100,RU,1611979532,78,67.6333,134.6333,-41.33,1.23
463,Kuytun,100,RU,1611979532,94,54.3419,101.5036,4.73,1.68
464,Nālūt,0,LY,1611979532,47,30.3333,10.85,50.83,5.75
465,Chara,76,RU,1611979533,77,56.9064,118.2631,-29.9,1.12
466,Vardø,100,NO,1611979371,97,70.3705,31.1107,26.37,20.11
467,‘Āhuimanu,75,US,1611979533,73,21.4447,-157.8378,78.01,12.66
468,Moroni,67,KM,1611979533,75,-11.7022,43.2551,80.83,9.57
469,Bījār,28,IR,1611979534,97,35.8668,47.6051,28.99,8.9
470,Uvat,100,RU,1611979534,88,59.1433,68.8953,-9.71,9.98
471,Port-Gentil,100,GA,1611979272,82,-0.7193,8.7815,80.15,13.42
472,Chenzhou,87,CN,1611979534,38,25.8,113.0333,59.13,3.8
473,Gibara,20,CU,1611979534,72,21.1097,-76.1317,64.4,8.05
474,Usoke,88,TZ,1611979535,98,-5.1667,32.35,63.09,3.98
475,Philadelphia,20,US,1611979373,53,39.9523,-75.1638,21.99,11.5
476,Manjeshwar,0,IN,1611979535,73,12.7194,74.8861,77.0,6.91
477,Carman,100,CA,1611979488,86,49.4992,-98.0016,19.4,14.97
478,Tucumcari,1,US,1611979508,53,35.1717,-103.725,48.2,14.97
479,Dutlwe,60,BW,1611979536,87,-23.9833,23.9,68.68,7.09
480,Henties Bay,85,NA,1611979536,82,-22.116,14.2845,66.99,2.66
481,Coyhaique,0,CL,1611979537,81,-45.5752,-72.0662,44.6,2.3
482,Marau,49,BR,1611979537,96,-28.4492,-52.2,67.05,4.43
483,Ferrol,40,ES,1611979537,67,43.4832,-8.2369,55.4,18.41
484,Pingzhuang,0,CN,1611979448,88,42.0372,119.2889,11.46,3.78
485,Viedma,0,AR,1611979538,73,-40.8135,-62.9967,55.99,9.64
486,Cherskiy,4,RU,1611979538,83,68.75,161.3,-35.05,2.24
487,Wahpeton,90,US,1611979499,93,46.2652,-96.6059,21.99,18.41
488,Roanoke Rapids,1,US,1611979539,93,36.4615,-77.6542,25.0,4.41
489,Marawi,92,PH,1611979539,79,7.9986,124.2928,81.0,5.01
490,Jánoshalma,81,HU,1611979539,92,46.2986,19.3258,39.99,6.73
491,Riverton,90,US,1611979449,100,40.5219,-111.9391,37.0,11.5
492,Tupelo,90,US,1611979285,70,34.2576,-88.7034,42.8,4.92
493,Shingū,40,JP,1611979540,49,33.7333,135.9833,44.6,17.27
494,Kenai,90,US,1611979492,93,60.5544,-151.2583,21.0,3.44
495,Tabas,31,IR,1611979540,21,33.5959,56.9244,44.6,4.61
496,Zatoka,88,UA,1611979540,100,46.0725,30.4654,30.2,9.73
497,Lahat,100,ID,1611979541,87,-3.8,103.5333,76.64,2.68
498,Tuy Hoa,100,VN,1611979541,81,13.0833,109.3,71.96,10.02
499,Dicabisagan,98,PH,1611979541,78,17.0818,122.4157,70.7,13.51
500,Tsaratanana,41,MG,1611979542,79,-16.7833,47.65,74.68,3.09
501,Kashan,23,IR,1611979542,76,33.9831,51.4364,43.75,2.73
502,Kharan,6,PK,1611979467,22,28.5833,65.4167,59.5,2.28
503,Gamba,100,GA,1611979542,89,-2.65,10.0,77.0,7.34
504,Tumut,75,AU,1611979542,48,-35.3,148.2167,86.0,11.5
505,Wajima,75,JP,1611979543,80,37.4,136.9,32.0,11.5
506,Kolda,0,SN,1611979543,25,12.8833,-14.95,66.2,0.94
507,Dhidhdhoo,6,MV,1611979543,69,6.8833,73.1,80.92,9.13
508,Beroroha,31,MG,1611979544,81,-21.6667,45.1667,77.45,2.8
509,Honiara,74,SB,1611979468,78,-9.4333,159.95,83.61,7.9
510,Portland,90,US,1611979544,76,45.5234,-122.6762,44.6,10.36
511,Troitsko-Pechorsk,100,RU,1611979544,89,62.7084,56.1964,-7.56,11.05
512,Béboto,0,TD,1611979545,26,8.2668,16.939,67.53,3.47
513,Matara,3,LK,1611979545,70,5.9485,80.5353,82.76,1.66
514,Goderich,100,CA,1611979488,63,43.7501,-81.7165,26.6,12.66
515,Champasak,40,LA,1611979546,57,14.75,106.0,77.0,2.3
516,Soyo,100,AO,1611979546,84,-6.1349,12.3689,77.83,5.14
517,Susanville,40,US,1611979546,80,40.4163,-120.653,33.8,4.61
518,Pontes e Lacerda,99,BR,1611979546,87,-15.2261,-59.3353,72.37,2.37
519,Oktyabr'skoye,93,RU,1611979546,93,43.0645,44.7417,35.6,4.47
520,Ridgecrest,1,US,1611979418,52,35.6225,-117.6709,45.0,6.91
521,Roald,75,NO,1611979339,75,62.5833,6.1333,35.6,9.22
522,Wenatchee,100,US,1611979547,88,47.4235,-120.3103,37.0,1.74
523,Olafsvik,100,IS,1611979547,97,64.8945,-23.7142,28.76,18.84
524,Half Moon Bay,20,US,1611979547,76,37.4636,-122.4286,48.99,4.61
525,Gashua,0,NG,1611979548,27,12.871,11.0482,62.28,11.65
526,Nueva Rosita,19,MX,1611979548,81,27.95,-101.2167,57.99,4.0
527,Ryōtsu-minato,75,JP,1611979548,64,38.0833,138.4333,35.6,27.63
528,Mirny,82,RU,1611979549,79,62.5353,113.9611,-42.02,3.31
529,Grand Gaube,2,MU,1611979549,73,-20.0064,57.6608,84.0,7.0
530,Jaisinghnagar,0,IN,1611979549,31,23.7,81.3833,60.64,2.84
531,Maceió,75,BR,1611979277,100,-9.6658,-35.7353,73.4,2.3
532,Alofi,100,NU,1611979550,89,-19.0595,-169.9187,80.6,8.05
533,Manokwari,93,ID,1611979482,65,-0.8667,134.0833,82.92,2.44
534,Bozeman,90,US,1611979456,80,45.6796,-111.0386,35.6,8.05
535,Moose Factory,90,CA,1611979551,84,51.2585,-80.6094,-0.4,6.91
536,Mehamn,100,NO,1611979336,96,71.0357,27.8492,25.47,19.19
537,Melfort,89,CA,1611979446,86,52.8667,-104.6177,15.8,3.44
538,Mackenzie,90,CA,1611979551,85,55.2999,-123.1698,1.4,5.75
539,Cambados,75,ES,1611979551,94,42.5122,-8.8131,57.99,9.22
540,Lingao,44,CN,1611979552,73,19.9103,109.6859,69.64,15.21
541,Clarence Town,40,AU,1611979552,69,-32.5833,151.7833,87.01,10.36
542,Erzin,0,TR,1611979552,84,36.9559,36.2,39.0,13.0
